City_ID,City,Country,Date,Lat,Lng,Max Temp,Humidity,Cloudiness,Wind Speed,Weather Description,Rain (in),Snow (in)
0,Avarua,CK,2020-06-16 13:10:05,-21.21,-159.78,71.6,68,8,6.93,clear sky,0.0,0.0
1,Esperance,AU,2020-06-16 13:12:13,-33.87,121.9,57.2,62,33,10.29,scattered clouds,0.0,0.0
2,Luganville,VU,2020-06-16 13:12:13,-15.53,167.17,78.8,83,20,11.41,few clouds,0.0,0.0
3,Rikitea,PF,2020-06-16 13:12:14,-23.12,-134.97,75.07,81,55,10.42,broken clouds,0.0,0.0
4,Half Moon Bay,US,2020-06-16 13:12:14,37.46,-122.43,55.99,87,1,18.34,mist,0.0,0.0
5,Mahebourg,MU,2020-06-16 13:12:14,-20.41,57.7,73.4,69,40,9.17,scattered clouds,0.0,0.0
6,Vardo,NO,2020-06-16 13:12:14,70.37,31.11,50.0,57,40,16.11,scattered clouds,0.0,0.0
7,Goderich,CA,2020-06-16 13:12:14,43.75,-81.72,57.99,78,0,1.01,clear sky,0.0,0.0
8,San Andres,CO,2020-06-16 13:14:24,12.58,-81.7,84.2,83,75,10.29,broken clouds,0.0,0.0
9,Castro,BR,2020-06-16 13:09:17,-24.79,-50.01,58.69,88,94,8.03,overcast clouds,0.0,0.0
10,Comodoro Rivadavia,AR,2020-06-16 13:07:55,-45.87,-67.5,42.8,81,44,1.12,scattered clouds,0.0,0.0
11,Mataura,NZ,2020-06-16 13:09:59,-46.19,168.86,47.3,84,70,4.7,broken clouds,0.0,0.0
12,Khovu-Aksy,RU,2020-06-16 13:12:15,51.13,93.6,60.17,58,2,5.91,clear sky,0.0,0.0
13,Monrovia,LR,2020-06-16 13:09:28,6.3,-10.8,86.0,79,75,8.05,broken clouds,0.0,0.0
14,Ushuaia,AR,2020-06-16 13:09:20,-54.8,-68.3,37.4,86,75,5.82,shower rain,0.0,0.0
15,Nelson Bay,AU,2020-06-16 13:14:25,-32.72,152.15,51.8,81,0,9.17,clear sky,0.0,0.0
16,Melfi,IT,2020-06-16 13:14:25,41.0,15.65,73.4,100,40,10.29,light rain,0.0,0.0
17,Port Elizabeth,ZA,2020-06-16 13:14:25,-33.92,25.57,64.4,68,20,11.41,few clouds,0.0,0.0
18,Punta Arenas,CL,2020-06-16 13:14:25,-53.15,-70.92,33.01,100,20,5.82,few clouds,0.0,0.0
19,Hilo,US,2020-06-16 13:05:20,19.73,-155.09,73.4,78,90,3.36,moderate rain,0.0,0.0
20,Cape Town,ZA,2020-06-16 13:02:15,-33.93,18.42,71.6,35,0,3.36,clear sky,0.0,0.0
21,Constitucion,CL,2020-06-16 13:09:46,-35.33,-72.42,55.29,92,100,15.95,light rain,0.35,0.0
22,Souillac,MU,2020-06-16 13:09:23,-20.52,57.52,75.2,64,40,9.17,scattered clouds,0.0,0.0
23,Santa Maria,BR,2020-06-16 13:09:47,-29.68,-53.81,66.16,84,51,5.84,broken clouds,0.0,0.0
24,Saldanha,ZA,2020-06-16 13:05:12,-33.01,17.94,71.6,46,0,3.36,clear sky,0.0,0.0
25,Tamarindo,CU,2020-06-16 13:09:47,22.12,-78.91,78.98,79,100,3.22,overcast clouds,0.0,0.0
26,Padang,ID,2020-06-16 13:09:47,-0.95,100.35,81.3,78,100,4.76,light rain,0.19,0.0
27,Jibuti,DJ,2020-06-16 13:09:47,11.5,42.5,104.43,12,0,3.36,clear sky,0.0,0.0
28,Thompson,CA,2020-06-16 13:05:12,55.74,-97.86,59.0,67,20,8.05,few clouds,0.0,0.0
29,Pombas,CV,2020-06-16 13:09:48,17.15,-25.02,89.6,46,0,8.05,clear sky,0.0,0.0
30,Clearwater,US,2020-06-16 13:09:48,27.97,-82.8,78.01,83,20,5.82,few clouds,0.0,0.0
31,Kruisfontein,ZA,2020-06-16 13:05:48,-34.0,24.73,63.0,58,0,7.96,clear sky,0.0,0.0
32,Smithers,CA,2020-06-16 13:06:10,54.78,-127.17,44.6,81,90,3.36,overcast clouds,0.0,0.0
33,Huarmey,PE,2020-06-16 13:05:30,-10.07,-78.15,64.76,77,29,4.18,scattered clouds,0.0,0.0
34,Tuktoyaktuk,CA,2020-06-16 13:03:07,69.45,-133.04,52.43,51,100,14.16,overcast clouds,0.0,0.0
35,Bluff,NZ,2020-06-16 13:05:15,-46.6,168.33,54.39,75,63,15.05,broken clouds,0.0,0.0
36,Caravelas,BR,2020-06-16 13:05:51,-17.71,-39.25,79.52,65,45,10.83,scattered clouds,0.0,0.0
37,Tasiilaq,GL,2020-06-16 13:03:04,65.61,-37.64,39.2,80,75,16.11,broken clouds,0.0,0.0
38,Khatanga,RU,2020-06-16 13:05:12,71.97,102.5,57.65,36,97,7.45,overcast clouds,0.0,0.0
39,Bethel,US,2020-06-16 13:05:24,41.37,-73.41,64.0,77,1,4.72,clear sky,0.0,0.0
40,Kearney,US,2020-06-16 13:08:03,40.7,-99.08,71.6,73,1,20.8,clear sky,0.0,0.0
41,Tena,EC,2020-06-16 13:09:50,-0.98,-77.82,64.4,100,90,4.7,shower rain,0.0,0.0
42,Raudeberg,NO,2020-06-16 13:09:21,61.99,5.14,75.2,60,58,8.05,broken clouds,0.0,0.0
43,Port-Gentil,GA,2020-06-16 13:05:22,-0.72,8.78,80.6,78,40,12.75,scattered clouds,0.0,0.0
44,Vila Velha,BR,2020-06-16 13:07:38,-20.33,-40.29,73.0,94,90,9.17,light rain,0.0,0.0
45,Barrow,US,2020-06-16 13:08:42,71.29,-156.79,33.8,86,1,11.41,clear sky,0.0,0.0
46,Lekoni,GA,2020-06-16 13:09:50,-1.58,14.26,88.23,46,100,4.65,overcast clouds,0.0,0.0
47,Beni Mazar,EG,2020-06-16 13:09:43,28.5,30.8,105.55,9,0,17.6,clear sky,0.0,0.0
48,Laguna De Perlas,NI,2020-06-16 13:09:50,12.34,-83.67,75.2,100,75,4.7,broken clouds,0.0,0.0
49,Soure,BR,2020-06-16 13:09:51,-0.72,-48.52,81.34,81,0,11.27,light rain,0.97,0.0
50,Sitka,US,2020-06-16 13:05:37,57.05,-135.33,51.8,87,90,8.05,light rain,0.51,0.0
51,Iqaluit,CA,2020-06-16 13:05:49,63.75,-68.51,35.6,74,90,9.17,overcast clouds,0.0,0.0
52,Vaini,TO,2020-06-16 13:05:21,-21.2,-175.2,71.56,69,46,24.25,scattered clouds,0.0,0.0
53,Santiago Del Estero,AR,2020-06-16 13:09:51,-27.8,-64.26,65.7,68,8,12.46,clear sky,0.0,0.0
54,Husavik,IS,2020-06-16 13:09:51,66.04,-17.34,55.4,35,40,12.75,scattered clouds,0.0,0.0
55,Mar Del Plata,AR,2020-06-16 13:09:51,-38.0,-57.56,57.99,100,90,8.05,overcast clouds,0.0,0.0
56,Shizukuishi,JP,2020-06-16 13:05:02,39.68,140.98,62.6,82,75,9.17,broken clouds,0.0,0.0
57,Abha,SA,2020-06-16 13:06:15,18.22,42.51,86.0,37,40,9.17,scattered clouds,0.0,0.0
58,Bubaque,GW,2020-06-16 13:05:32,11.28,-15.83,80.85,80,0,7.02,clear sky,0.0,0.0
59,Puerto Ayora,EC,2020-06-16 13:05:41,-0.74,-90.35,72.0,92,98,1.99,overcast clouds,0.0,0.0
60,Progress,US,2020-06-16 13:09:52,40.29,-76.83,64.99,55,1,3.6,clear sky,0.0,0.0
61,Jamestown,US,2020-06-16 13:05:09,42.1,-79.24,59.0,67,1,3.36,clear sky,0.0,0.0
62,Dalvik,IS,2020-06-16 13:09:52,65.97,-18.53,55.4,35,40,12.75,scattered clouds,0.0,0.0
63,Qaanaaq,GL,2020-06-16 13:05:32,77.48,-69.36,38.86,74,0,3.65,clear sky,0.0,0.0
64,Albany,US,2020-06-16 13:05:19,42.6,-73.97,63.0,54,0,3.67,clear sky,0.0,0.0
65,Cayenne,GF,2020-06-16 13:01:45,4.93,-52.33,82.4,69,90,4.7,overcast clouds,0.0,0.0
66,Kavieng,PG,2020-06-16 13:06:06,-2.57,150.8,83.55,71,87,9.84,overcast clouds,0.0,0.0
67,Moree,AU,2020-06-16 13:09:53,-29.47,149.85,46.4,81,0,2.24,clear sky,0.0,0.0
68,Corn Island,NI,2020-06-16 13:09:53,12.17,-83.04,83.03,78,100,9.84,moderate rain,1.8,0.0
69,Dwarka,IN,2020-06-16 13:05:20,22.24,68.97,87.67,79,100,14.23,overcast clouds,0.0,0.0
70,Hasaki,JP,2020-06-16 13:09:24,35.73,140.83,72.0,78,20,9.17,few clouds,0.0,0.0
71,Ancud,CL,2020-06-16 13:09:54,-41.87,-73.82,50.0,93,90,10.29,overcast clouds,0.0,0.0
72,Quechultenango,MX,2020-06-16 13:09:54,17.42,-99.22,71.85,74,5,3.04,clear sky,0.0,0.0
73,Velyka Bilozerka,UA,2020-06-16 13:09:54,47.28,34.71,84.0,47,100,10.54,light rain,0.94,0.0
74,Tomatlan,MX,2020-06-16 13:05:41,19.93,-105.25,75.09,76,0,0.36,clear sky,0.0,0.0
75,Severo-Kurilsk,RU,2020-06-16 13:05:27,50.68,156.12,41.49,90,100,11.48,overcast clouds,0.0,0.0
76,Hauterive,FR,2020-06-16 13:09:54,46.09,3.45,69.8,63,75,5.82,broken clouds,0.0,0.0
77,Lafia,NG,2020-06-16 13:09:55,8.48,8.52,92.55,52,51,6.17,broken clouds,0.0,0.0
78,Vilyuysk,RU,2020-06-16 13:09:55,63.76,121.62,63.86,61,88,2.93,overcast clouds,0.0,0.0
79,Sorel,CA,2020-06-16 13:09:55,46.04,-73.11,62.6,55,1,3.49,clear sky,0.0,0.0
80,Lahij,YE,2020-06-16 13:09:55,13.17,44.58,100.62,25,100,10.25,overcast clouds,0.0,0.0
81,Hermanus,ZA,2020-06-16 13:05:15,-34.42,19.23,70.0,52,0,4.03,clear sky,0.0,0.0
82,Salalah,OM,2020-06-16 13:05:54,17.02,54.09,87.8,84,20,14.99,few clouds,0.0,0.0
83,Buala,SB,2020-06-16 13:05:42,-8.14,159.59,80.92,80,100,6.26,moderate rain,1.91,0.0
84,Dikson,RU,2020-06-16 13:05:19,73.51,80.55,32.07,97,100,16.78,overcast clouds,0.0,0.0
85,Manavalakurichi,IN,2020-06-16 13:05:32,8.13,77.3,86.0,70,20,5.82,few clouds,0.0,0.0
86,Gouyave,GD,2020-06-16 13:09:56,12.16,-61.73,84.2,70,20,16.11,few clouds,0.0,0.0
87,Juba,SS,2020-06-16 13:09:56,4.85,31.58,88.11,51,37,3.69,scattered clouds,0.0,0.0
88,Butaritari,KI,2020-06-16 13:05:17,3.07,172.79,83.21,79,24,12.84,light rain,0.25,0.0
89,Saint-Philippe,RE,2020-06-16 13:05:38,-21.36,55.77,73.4,56,58,18.34,broken clouds,0.0,0.0
90,Port Blair,IN,2020-06-16 13:05:25,11.67,92.75,83.66,79,100,16.71,light rain,0.67,0.0
91,Atuona,PF,2020-06-16 13:05:12,-9.8,-139.03,80.22,75,1,13.11,clear sky,0.0,0.0
92,Lebu,CL,2020-06-16 13:05:19,-37.62,-73.65,52.68,87,100,14.03,light rain,0.16,0.0
93,Ribeira Grande,PT,2020-06-16 13:06:07,38.52,-28.7,68.0,72,20,11.41,few clouds,0.0,0.0
94,Lermontovka,RU,2020-06-16 13:09:57,47.15,134.34,49.75,90,100,4.47,overcast clouds,0.0,0.0
95,Normandin,CA,2020-06-16 13:09:57,48.83,-72.53,68.0,42,40,10.29,scattered clouds,0.0,0.0
96,Takoradi,GH,2020-06-16 13:09:57,4.88,-1.76,83.05,74,44,10.83,scattered clouds,0.0,0.0
97,Nome,US,2020-06-16 13:09:58,64.5,-165.41,50.0,87,1,5.82,clear sky,0.0,0.0
98,Mascote,BR,2020-06-16 13:09:58,-15.56,-39.3,72.09,94,86,4.54,moderate rain,1.08,0.0
99,Sabang,ID,2020-06-16 13:09:58,5.89,95.32,83.43,69,100,14.07,overcast clouds,0.0,0.0
100,Kaitangata,NZ,2020-06-16 13:05:11,-46.28,169.85,57.99,51,100,4.72,overcast clouds,0.0,0.0
101,Manzanillo,CU,2020-06-16 13:09:58,20.34,-77.12,80.01,79,98,5.39,overcast clouds,0.0,0.0
102,Berlevag,NO,2020-06-16 13:09:58,70.86,29.09,46.4,70,75,21.92,broken clouds,0.0,0.0
103,Chuy,UY,2020-06-16 13:05:18,-33.7,-53.46,60.85,89,25,9.46,scattered clouds,0.0,0.0
104,Samarai,PG,2020-06-16 13:09:59,-10.62,150.67,79.88,84,100,18.5,light rain,0.91,0.0
105,Suleja,NG,2020-06-16 13:09:59,9.18,7.18,89.6,66,75,5.82,broken clouds,0.0,0.0
106,Ikwiriri,TZ,2020-06-16 13:09:59,-7.96,38.97,86.56,37,1,7.99,clear sky,0.0,0.0
107,Carupano,VE,2020-06-16 13:07:00,10.67,-63.26,81.36,71,20,10.45,few clouds,0.0,0.0
108,Clyde River,CA,2020-06-16 13:03:07,70.47,-68.59,32.0,93,90,9.17,overcast clouds,0.0,0.0
109,Hovd,MN,2020-06-16 13:10:00,48.01,91.64,75.81,21,3,5.39,light rain,0.33,0.0
110,Victoria,HK,2020-06-16 13:05:26,22.29,114.16,82.0,74,0,8.01,clear sky,0.0,0.0
111,Aranjuez,ES,2020-06-16 13:10:00,40.03,-3.6,77.0,29,48,16.11,scattered clouds,0.0,0.0
112,Iskateley,RU,2020-06-16 13:10:00,67.68,53.15,45.52,57,100,20.0,overcast clouds,0.0,0.0
113,Lagoa,PT,2020-06-16 13:05:34,39.05,-27.98,64.36,80,23,10.83,few clouds,0.0,0.0
114,Upernavik,GL,2020-06-16 13:05:09,72.79,-56.15,31.39,95,12,9.55,few clouds,0.0,0.0
115,Ordzhonikidze,KZ,2020-06-16 13:10:00,52.44,61.74,74.59,30,8,11.25,clear sky,0.0,0.0
116,Jalu,LY,2020-06-16 13:05:37,29.03,21.55,96.08,21,0,20.15,clear sky,0.0,0.0
117,Labuhan,ID,2020-06-16 13:05:23,-6.88,112.21,81.1,80,0,7.67,clear sky,0.0,0.0
118,Gongzhuling,CN,2020-06-16 13:10:01,43.5,124.82,70.66,46,0,9.6,clear sky,0.0,0.0
119,Nelson,NZ,2020-06-16 13:10:01,-41.28,173.28,59.0,93,100,7.76,light rain,0.6,0.0
120,Qorveh,IR,2020-06-16 13:10:01,35.17,47.8,83.68,15,95,5.93,overcast clouds,0.0,0.0
121,Ambilobe,MG,2020-06-16 13:05:51,-13.2,49.05,82.27,46,59,8.14,broken clouds,0.0,0.0
122,Carnarvon,AU,2020-06-16 13:05:28,-24.87,113.63,64.4,39,0,9.17,clear sky,0.0,0.0
123,Pisco,PE,2020-06-16 13:05:25,-13.7,-76.22,64.4,82,90,3.36,mist,0.0,0.0
124,New Norfolk,AU,2020-06-16 13:05:17,-42.78,147.06,43.0,84,30,1.01,moderate rain,1.52,0.0
125,San Patricio,MX,2020-06-16 13:10:02,19.22,-104.7,73.4,94,40,2.93,scattered clouds,0.0,0.0
126,Rumoi,JP,2020-06-16 13:10:02,43.93,141.64,57.78,93,100,2.55,light rain,0.13,0.0
127,Saint-Louis,SN,2020-06-16 13:10:02,16.33,-15.0,95.0,36,0,4.7,dust,0.0,0.0
128,Tutoia,BR,2020-06-16 13:10:03,-2.76,-42.27,83.41,65,0,5.59,clear sky,0.0,0.0
129,Tadine,NC,2020-06-16 13:10:03,-21.55,167.88,72.0,82,0,7.34,clear sky,0.0,0.0
130,Zhigansk,RU,2020-06-16 13:10:03,66.77,123.37,59.72,68,2,11.32,clear sky,0.0,0.0
131,Hidalgo,MX,2020-06-16 13:10:03,20.5,-99.0,55.29,81,0,2.39,clear sky,0.0,0.0
132,Ponta Do Sol,PT,2020-06-16 13:05:37,32.67,-17.1,69.01,87,100,13.0,overcast clouds,0.0,0.0
133,Noshiro,JP,2020-06-16 13:10:04,40.2,140.02,62.6,82,75,9.17,broken clouds,0.0,0.0
134,East London,ZA,2020-06-16 13:05:36,-33.02,27.91,64.4,59,7,8.05,clear sky,0.0,0.0
135,Bereda,ES,2020-06-16 13:10:04,43.27,-7.54,60.01,76,19,11.99,few clouds,0.0,0.0
136,Busselton,AU,2020-06-16 13:02:21,-33.65,115.33,59.0,64,92,15.32,overcast clouds,0.0,0.0
137,Ixtapa,MX,2020-06-16 13:10:04,20.7,-105.2,75.99,78,20,2.24,few clouds,0.0,0.0
138,Saint Anthony,US,2020-06-16 13:05:16,45.02,-93.22,72.0,53,1,11.41,clear sky,0.0,0.0
139,Hobart,AU,2020-06-16 13:00:39,-42.88,147.33,45.0,70,75,18.34,moderate rain,1.78,0.0
140,Alta Floresta,BR,2020-06-16 13:09:21,-9.88,-56.09,78.8,74,0,2.24,clear sky,0.0,0.0
141,Klaksvik,FO,2020-06-16 13:05:14,62.23,-6.59,50.0,100,100,5.82,overcast clouds,0.0,0.0
142,Natal,BR,2020-06-16 13:10:05,-5.79,-35.21,77.0,88,75,12.75,broken clouds,0.0,0.0
143,Longyearbyen,SJ,2020-06-16 13:05:42,78.22,15.64,41.0,65,20,12.75,few clouds,0.0,0.0
144,Porbandar,IN,2020-06-16 13:10:05,21.64,69.61,88.9,73,100,11.81,overcast clouds,0.0,0.0
145,Jojoima,SL,2020-06-16 13:10:05,7.88,-10.79,89.85,59,73,1.86,broken clouds,0.0,0.0
146,Aksu,CN,2020-06-16 13:05:43,41.12,80.26,82.67,24,12,13.94,few clouds,0.0,0.0
147,Saint-Pierre,RE,2020-06-16 13:10:06,-21.34,55.48,73.4,56,0,18.34,clear sky,0.0,0.0
148,Renqiu,CN,2020-06-16 13:10:06,38.7,116.09,75.74,47,100,19.35,overcast clouds,0.0,0.0
149,Ewo,CG,2020-06-16 13:10:06,-0.87,14.82,89.01,53,99,1.63,light rain,0.13,0.0
150,Port-Cartier,CA,2020-06-16 13:09:24,50.03,-66.87,63.0,51,75,2.24,broken clouds,0.0,0.0
151,Alofi,NU,2020-06-16 13:04:54,-19.06,-169.92,71.6,64,0,17.22,clear sky,0.0,0.0
152,Tekkali,IN,2020-06-16 13:10:06,18.62,84.23,84.9,78,98,10.42,overcast clouds,0.0,0.0
153,San Cristobal,VE,2020-06-16 13:06:01,7.77,-72.22,80.6,61,20,4.7,few clouds,0.0,0.0
154,Margate,GB,2020-06-16 13:10:07,51.38,1.39,70.0,71,0,3.0,clear sky,0.0,0.0
155,Mpika,ZM,2020-06-16 13:10:07,-11.83,31.45,66.97,43,0,10.02,clear sky,0.0,0.0
156,Guder,ET,2020-06-16 13:10:07,8.97,37.77,71.55,61,7,4.43,moderate rain,1.31,0.0
157,Kharan,PK,2020-06-16 13:10:07,28.58,65.42,111.56,5,0,15.68,clear sky,0.0,0.0
158,Tabas,IR,2020-06-16 13:10:07,33.6,56.92,109.4,6,0,6.93,clear sky,0.0,0.0
159,Qui Nhon,VN,2020-06-16 13:05:40,13.77,109.23,80.96,81,100,6.38,overcast clouds,0.0,0.0
160,Cidreira,BR,2020-06-16 13:05:32,-30.18,-50.21,63.09,82,3,11.63,clear sky,0.0,0.0
161,Muros,ES,2020-06-16 13:05:13,42.78,-9.06,63.0,76,21,7.0,few clouds,0.0,0.0
162,Airai,TL,2020-06-16 13:05:45,-8.93,125.41,57.97,100,27,4.47,scattered clouds,0.0,0.0
163,Takaka,NZ,2020-06-16 13:10:08,-40.85,172.8,59.0,92,93,5.99,light rain,0.15,0.0
164,Beboto,TD,2020-06-16 13:10:08,8.27,16.94,96.71,40,0,2.48,clear sky,0.0,0.0
165,Tarauaca,BR,2020-06-16 13:10:08,-8.16,-70.77,77.7,74,28,2.37,scattered clouds,0.0,0.0
166,Coquimbo,CL,2020-06-16 13:09:18,-29.95,-71.34,50.0,87,75,4.7,broken clouds,0.0,0.0
167,Chokurdakh,RU,2020-06-16 13:05:28,70.63,147.92,73.09,41,100,6.4,overcast clouds,0.0,0.0
168,Dingle,PH,2020-06-16 13:06:04,11.0,122.67,78.87,75,9,4.65,clear sky,0.0,0.0
169,Torbay,CA,2020-06-16 13:05:15,47.67,-52.73,55.99,87,75,14.99,broken clouds,0.0,0.0
170,Peno,RU,2020-06-16 13:10:09,56.93,32.74,75.16,83,99,3.0,light rain,0.32,0.0
171,Tiksi,RU,2020-06-16 13:05:20,71.69,128.87,56.57,49,24,10.87,few clouds,0.0,0.0
172,Meiganga,CM,2020-06-16 13:10:09,6.52,14.3,79.32,77,95,3.22,moderate rain,1.56,0.0
173,Kamenka,RU,2020-06-16 13:10:10,51.32,42.77,74.77,54,0,9.37,clear sky,0.0,0.0
174,Westport,US,2020-06-16 13:10:10,41.14,-73.36,64.99,72,1,4.7,clear sky,0.0,0.0
175,Bredasdorp,ZA,2020-06-16 13:05:20,-34.53,20.04,69.8,49,0,5.5,clear sky,0.0,0.0
176,Spearfish,US,2020-06-16 13:10:10,44.49,-103.86,77.0,35,100,5.01,overcast clouds,0.0,0.0
177,Chapais,CA,2020-06-16 13:05:18,49.78,-74.85,64.4,45,1,11.41,clear sky,0.0,0.0
178,Ust-Tsilma,RU,2020-06-16 13:10:10,65.44,52.15,49.3,75,100,8.14,light rain,0.13,0.0
179,Kapaa,US,2020-06-16 13:05:29,22.08,-159.32,77.0,78,90,13.87,overcast clouds,0.0,0.0
180,Cherskiy,RU,2020-06-16 13:05:49,68.75,161.3,66.81,42,15,7.63,few clouds,0.0,0.0
181,Kodiak,US,2020-06-16 13:05:09,57.79,-152.41,51.8,81,90,11.41,overcast clouds,0.0,0.0
182,Waddan,LY,2020-06-16 13:05:56,29.16,16.14,89.74,17,0,14.56,clear sky,0.0,0.0
183,Avera,US,2020-06-16 13:05:31,33.19,-82.53,62.6,93,90,5.82,overcast clouds,0.0,0.0
184,Kawalu,ID,2020-06-16 13:05:47,-7.38,108.21,73.49,93,52,1.45,broken clouds,0.0,0.0
185,Nardaran,AZ,2020-06-16 13:10:11,40.56,50.01,86.0,45,0,16.11,clear sky,0.0,0.0
186,Balsas,BR,2020-06-16 13:10:11,-7.53,-46.04,81.9,53,0,11.03,clear sky,0.0,0.0
187,Lavrentiya,RU,2020-06-16 13:09:26,65.58,-171.0,46.92,67,0,2.08,clear sky,0.0,0.0
188,Biak,ID,2020-06-16 13:10:11,-0.91,122.88,77.81,80,43,7.2,scattered clouds,0.0,0.0
189,Port Lincoln,AU,2020-06-16 13:06:02,-34.73,135.87,56.07,75,100,2.98,overcast clouds,0.0,0.0
190,Bundaberg,AU,2020-06-16 13:10:12,-24.85,152.35,66.99,88,90,6.93,overcast clouds,0.0,0.0
191,Tuy Hoa,VN,2020-06-16 13:08:02,13.08,109.3,80.42,83,100,2.06,overcast clouds,0.0,0.0
192,Guerrero Negro,MX,2020-06-16 13:09:56,27.98,-114.06,60.89,93,33,8.01,scattered clouds,0.0,0.0
193,Itumba,TZ,2020-06-16 13:10:12,-9.4,33.18,66.9,56,76,9.01,broken clouds,0.0,0.0
194,Terneuzen,NL,2020-06-16 13:10:12,51.28,3.84,75.0,64,92,3.0,light rain,0.89,0.0
195,Hudson Bay,CA,2020-06-16 13:10:12,52.85,-102.38,59.85,65,100,4.36,overcast clouds,0.0,0.0
196,Ilulissat,GL,2020-06-16 13:05:45,69.22,-51.1,39.2,48,20,6.93,few clouds,0.0,0.0
197,Acapulco,MX,2020-06-16 13:08:02,16.86,-99.89,78.8,88,40,4.7,scattered clouds,0.0,0.0
198,Mikuni,JP,2020-06-16 13:10:13,36.22,136.15,66.2,82,40,4.7,scattered clouds,0.0,0.0
199,Talnakh,RU,2020-06-16 13:05:32,69.49,88.4,44.6,81,75,13.42,broken clouds,0.0,0.0
200,Norman Wells,CA,2020-06-16 13:05:23,65.28,-126.83,53.6,76,75,9.17,broken clouds,0.0,0.0
201,Pevek,RU,2020-06-16 13:05:55,69.7,170.31,43.38,68,0,3.06,clear sky,0.0,0.0
202,Korla,CN,2020-06-16 13:10:13,41.76,86.15,90.3,11,93,4.61,overcast clouds,0.0,0.0
203,Tateyama,JP,2020-06-16 13:10:14,34.98,139.87,78.01,74,0,8.01,clear sky,0.0,0.0
204,Bowen,AU,2020-06-16 13:10:14,-20.02,148.23,71.01,88,75,3.36,broken clouds,0.0,0.0
205,Kentau,KZ,2020-06-16 13:10:14,43.52,68.51,81.12,18,0,12.35,clear sky,0.0,0.0
206,Beringovskiy,RU,2020-06-16 13:10:14,63.05,179.32,43.66,83,0,1.79,clear sky,0.0,0.0
207,Nikolskoye,RU,2020-06-16 13:05:40,59.7,30.79,80.6,47,40,2.24,thunderstorm,0.0,0.0
208,Oksfjord,NO,2020-06-16 13:10:14,70.24,22.35,50.0,53,87,10.29,overcast clouds,0.0,0.0
209,Shimoda,JP,2020-06-16 13:10:15,34.67,138.95,69.01,73,0,3.0,clear sky,0.0,0.0
210,Kyshtovka,RU,2020-06-16 13:10:15,56.55,76.63,64.09,66,0,4.83,clear sky,0.0,0.0
211,Grindavik,IS,2020-06-16 13:05:52,63.84,-22.43,48.2,81,75,18.34,broken clouds,0.0,0.0
212,Narsaq,GL,2020-06-16 13:03:04,60.92,-46.05,41.0,86,75,2.24,moderate rain,0.0,0.0
213,Mamontovo,RU,2020-06-16 13:10:15,52.71,81.62,63.7,59,11,11.16,few clouds,0.0,0.0
214,Kailua,US,2020-06-16 13:07:39,21.4,-157.74,86.0,55,90,9.17,overcast clouds,0.0,0.0
215,Jumla,NP,2020-06-16 13:10:16,29.27,82.18,73.0,81,52,3.0,light rain,0.13,0.0
216,Canar,EC,2020-06-16 13:10:16,-2.55,-78.93,51.8,100,90,8.05,light intensity drizzle,0.0,0.0
217,Yar-Sale,RU,2020-06-16 13:05:19,66.83,70.83,51.04,46,100,13.47,overcast clouds,0.0,0.0
218,San Julian,MX,2020-06-16 13:10:16,21.02,-102.17,57.63,57,0,5.1,clear sky,0.0,0.0
219,Dovers,VC,2020-06-16 13:10:17,12.88,-61.18,84.2,70,40,19.66,scattered clouds,0.0,0.0
220,Los Llanos De Aridane,ES,2020-06-16 13:05:21,28.66,-17.92,78.8,74,100,5.82,overcast clouds,0.0,0.0
221,Faya,SA,2020-06-16 13:05:45,18.39,42.45,86.0,37,40,9.17,scattered clouds,0.0,0.0
222,Yellowknife,CA,2020-06-16 13:01:04,62.46,-114.35,48.2,76,75,17.22,broken clouds,0.0,0.0
223,Katsuura,JP,2020-06-16 13:10:17,35.13,140.3,73.0,84,0,15.97,clear sky,0.0,0.0
224,Lompoc,US,2020-06-16 13:06:00,34.64,-120.46,53.6,87,90,8.05,overcast clouds,0.0,0.0
225,Sanming,CN,2020-06-16 13:10:18,26.25,117.62,80.71,72,11,2.59,few clouds,0.0,0.0
226,Lodja,CD,2020-06-16 13:10:18,-3.48,23.43,93.54,25,0,3.71,clear sky,0.0,0.0
227,Arraial Do Cabo,BR,2020-06-16 13:05:51,-22.97,-42.03,73.4,69,75,9.17,broken clouds,0.0,0.0
228,Luderitz,NA,2020-06-16 13:06:02,-26.65,15.16,87.8,6,0,19.46,clear sky,0.0,0.0
229,Fortuna,US,2020-06-16 13:05:47,40.6,-124.16,51.01,100,90,3.29,overcast clouds,0.0,0.0
230,Ostrovnoy,RU,2020-06-16 13:05:24,68.05,39.51,44.37,64,100,19.37,overcast clouds,0.0,0.0
231,Port Alfred,ZA,2020-06-16 13:09:27,-33.59,26.89,64.0,80,40,5.01,scattered clouds,0.0,0.0
232,Nehe,CN,2020-06-16 13:10:19,48.48,124.83,58.62,91,2,9.35,clear sky,0.0,0.0
233,Chivay,PE,2020-06-16 13:10:19,-15.64,-71.6,49.8,48,42,3.87,scattered clouds,0.0,0.0
234,Sri Aman,MY,2020-06-16 13:10:19,1.24,111.46,77.0,100,100,1.25,overcast clouds,0.0,0.0
235,Chumikan,RU,2020-06-16 13:10:20,54.72,135.31,43.83,83,91,3.8,overcast clouds,0.0,0.0
236,Richards Bay,ZA,2020-06-16 13:05:41,-28.78,32.04,67.59,50,89,10.33,overcast clouds,0.0,0.0
237,Hami,CN,2020-06-16 13:10:20,42.8,93.45,92.08,11,0,4.5,clear sky,0.0,0.0
238,Hoi An,VN,2020-06-16 13:06:06,15.88,108.33,84.2,74,75,3.36,broken clouds,0.0,0.0
239,Hithadhoo,MV,2020-06-16 13:00:40,-0.6,73.08,84.83,76,0,10.16,clear sky,0.0,0.0
240,Oranjemund,NA,2020-06-16 13:10:20,-28.55,16.43,74.39,18,42,26.44,scattered clouds,0.0,0.0
241,Praia,CV,2020-06-16 13:05:26,14.92,-23.51,84.2,74,20,8.05,few clouds,0.0,0.0
242,Kaeo,NZ,2020-06-16 13:05:15,-35.1,173.78,59.0,3,8,4.0,clear sky,0.0,0.0
243,Toppenish,US,2020-06-16 13:10:21,46.38,-120.31,48.99,87,76,3.47,broken clouds,0.0,0.0
244,Mirnyy,RU,2020-06-16 13:10:21,62.54,113.96,57.2,71,40,8.95,light intensity shower rain,0.0,0.0
245,Necochea,AR,2020-06-16 13:04:45,-38.55,-58.74,54.0,93,100,7.0,overcast clouds,0.0,0.0
246,Bambous Virieux,MU,2020-06-16 13:05:24,-20.34,57.76,75.2,64,40,9.17,scattered clouds,0.0,0.0
247,Pimentel,PE,2020-06-16 13:10:22,-6.84,-79.93,64.4,77,23,3.36,few clouds,0.0,0.0
248,Cabo San Lucas,MX,2020-06-16 13:03:34,22.89,-109.91,84.2,8,5,12.75,clear sky,0.0,0.0
249,Klyuchi,RU,2020-06-16 13:10:22,52.27,79.17,67.66,45,0,17.07,clear sky,0.0,0.0
250,Lenine,UA,2020-06-16 13:10:22,45.3,35.78,78.8,55,0,12.21,clear sky,0.0,0.0
251,Gawler,AU,2020-06-16 13:10:22,-34.6,138.73,51.01,94,24,1.99,few clouds,0.0,0.0
252,Kijabe,KE,2020-06-16 13:10:22,-0.93,36.58,60.01,88,99,4.23,moderate rain,1.02,0.0
253,Zhuhai,CN,2020-06-16 13:05:41,22.28,113.57,84.99,83,20,11.41,few clouds,0.0,0.0
254,Christchurch,NZ,2020-06-16 13:05:34,-43.53,172.63,51.01,87,0,1.12,clear sky,0.0,0.0
255,Kushmurun,KZ,2020-06-16 13:10:23,52.45,64.63,73.56,33,0,13.8,clear sky,0.0,0.0
256,Srednekolymsk,RU,2020-06-16 13:05:30,67.45,153.68,73.87,38,53,7.36,broken clouds,0.0,0.0
257,Praia Da Vitoria,PT,2020-06-16 13:10:23,38.73,-27.07,66.2,82,40,9.55,scattered clouds,0.0,0.0
258,Te Anau,NZ,2020-06-16 13:10:23,-45.42,167.72,51.96,84,89,6.04,overcast clouds,0.0,0.0
259,Hemsedal,NO,2020-06-16 13:10:23,60.86,8.55,77.0,29,62,3.0,broken clouds,0.0,0.0
260,Quelimane,MZ,2020-06-16 13:10:24,-17.88,36.89,77.0,50,40,12.75,scattered clouds,0.0,0.0
261,Dunedin,NZ,2020-06-16 13:10:24,-45.87,170.5,59.0,49,100,5.91,overcast clouds,0.0,0.0
262,Hambantota,LK,2020-06-16 13:10:24,6.12,81.12,84.2,83,40,14.99,scattered clouds,0.0,0.0
263,Pueblo Nuevo,MX,2020-06-16 13:10:24,23.38,-105.38,59.31,62,0,5.82,clear sky,0.0,0.0
264,Mount Isa,AU,2020-06-16 13:05:15,-20.73,139.5,68.0,32,0,14.99,clear sky,0.0,0.0
265,Phillipsburg,US,2020-06-16 13:07:55,40.69,-75.19,63.0,77,1,4.54,clear sky,0.0,0.0
266,Namatanai,PG,2020-06-16 13:10:25,-3.67,152.43,80.2,80,100,4.72,light rain,0.64,0.0
267,Guiyang,CN,2020-06-16 13:10:08,26.58,106.72,75.2,78,75,13.42,broken clouds,0.0,0.0
268,Bowmore,US,2020-06-16 13:10:25,34.94,-79.3,62.6,93,90,9.17,overcast clouds,0.0,0.0
269,Hachinohe,JP,2020-06-16 13:10:25,40.5,141.5,60.8,82,40,9.17,scattered clouds,0.0,0.0
270,Carmarthen,GB,2020-06-16 13:06:12,51.86,-4.31,64.99,77,49,6.93,moderate rain,1.11,0.0
271,Doha,QA,2020-06-16 13:04:19,25.29,51.53,116.6,7,4,17.22,clear sky,0.0,0.0
272,Provideniya,RU,2020-06-16 13:05:44,64.38,-173.3,52.23,60,96,1.68,overcast clouds,0.0,0.0
273,Varhaug,NO,2020-06-16 13:10:26,58.61,5.65,68.0,68,32,10.29,scattered clouds,0.0,0.0
274,Maniitsoq,GL,2020-06-16 13:06:08,65.42,-52.9,35.69,96,100,10.69,light snow,0.0,0.36
275,Quatre Cocos,MU,2020-06-16 13:10:26,-20.21,57.76,75.2,64,40,9.17,scattered clouds,0.0,0.0
276,Adrar,MR,2020-06-16 13:10:26,20.5,-10.07,107.33,10,0,26.02,clear sky,0.0,0.0
277,Sturgeon Bay,US,2020-06-16 13:08:19,44.83,-87.38,60.8,71,1,4.7,clear sky,0.0,0.0
278,Nago,JP,2020-06-16 13:10:26,26.59,127.98,82.4,88,1,14.99,clear sky,0.0,0.0
279,Kahului,US,2020-06-16 13:09:20,20.89,-156.47,75.2,78,40,9.17,scattered clouds,0.0,0.0
280,Ngunguru,NZ,2020-06-16 13:10:27,-35.62,174.5,59.0,86,38,10.0,scattered clouds,0.0,0.0
281,Sept-Iles,CA,2020-06-16 13:10:27,50.2,-66.38,63.0,51,75,2.24,broken clouds,0.0,0.0
282,Stepnyak,KZ,2020-06-16 13:10:27,52.83,70.78,65.89,36,0,15.46,clear sky,0.0,0.0
283,Abu Samrah,SY,2020-06-16 13:10:27,35.3,37.18,91.9,21,0,18.84,clear sky,0.0,0.0
284,Hengshui,CN,2020-06-16 13:10:27,37.73,115.7,71.24,64,100,17.09,overcast clouds,0.0,0.0
285,Dalnegorsk,RU,2020-06-16 13:10:27,44.56,135.57,49.15,89,93,2.53,overcast clouds,0.0,0.0
286,Tessalit,ML,2020-06-16 13:05:38,20.2,1.01,110.26,5,0,13.29,clear sky,0.0,0.0
287,Obidos,BR,2020-06-16 13:06:25,-1.92,-55.52,79.07,89,62,4.45,moderate rain,1.38,0.0
288,Wajid,SO,2020-06-16 13:10:28,3.81,43.25,86.31,45,100,20.56,overcast clouds,0.0,0.0
289,Poum,NC,2020-06-16 13:05:50,-20.23,164.02,74.32,76,2,16.24,clear sky,0.0,0.0
290,Nhulunbuy,AU,2020-06-16 13:05:57,-12.23,136.77,77.0,78,19,10.29,few clouds,0.0,0.0
291,Nantucket,US,2020-06-16 13:06:12,41.28,-70.1,63.0,77,75,12.75,broken clouds,0.0,0.0
292,Garissa,KE,2020-06-16 13:05:43,-0.45,39.64,90.03,34,100,22.06,overcast clouds,0.0,0.0
293,Polunochnoye,RU,2020-06-16 13:05:14,60.87,60.42,77.05,37,3,11.45,clear sky,0.0,0.0
294,Bushehr,IR,2020-06-16 13:10:28,28.97,50.84,95.0,50,0,20.8,clear sky,0.0,0.0
295,Yulara,AU,2020-06-16 13:10:29,-25.24,130.99,51.8,29,0,6.93,clear sky,0.0,0.0
296,Port Hardy,CA,2020-06-16 13:05:55,50.7,-127.42,49.33,85,5,7.58,clear sky,0.0,0.0
297,Igarka,RU,2020-06-16 13:10:29,67.47,86.58,49.57,68,45,13.89,scattered clouds,0.0,0.0
298,Grandview,US,2020-06-16 13:10:29,38.89,-94.53,73.4,83,1,8.05,clear sky,0.0,0.0
299,Central Point,US,2020-06-16 13:10:29,42.38,-122.92,50.0,81,90,3.36,overcast clouds,0.0,0.0
300,Ballinrobe,IE,2020-06-16 13:07:25,53.63,-9.23,57.99,84,100,1.99,light rain,0.12,0.0
301,Havre-Saint-Pierre,CA,2020-06-16 13:05:45,50.23,-63.6,55.4,76,75,13.87,broken clouds,0.0,0.0
302,Machilipatnam,IN,2020-06-16 13:10:30,16.17,81.13,93.2,59,40,5.82,scattered clouds,0.0,0.0
303,Port Arthur,CN,2020-06-16 13:10:30,38.8,121.27,71.6,56,61,4.47,broken clouds,0.0,0.0
304,Kenai,US,2020-06-16 13:10:30,60.55,-151.26,50.0,81,75,13.87,broken clouds,0.0,0.0
305,Nurota,UZ,2020-06-16 13:10:30,40.56,65.69,91.4,13,1,16.11,clear sky,0.0,0.0
306,Buraydah,SA,2020-06-16 13:07:05,26.33,43.98,113.0,13,0,4.7,clear sky,0.0,0.0
307,Huambo,AO,2020-06-16 13:10:30,-12.78,15.74,71.6,40,0,4.07,clear sky,0.0,0.0
308,Dunmore Town,BS,2020-06-16 13:10:30,25.5,-76.65,80.67,78,100,7.54,light rain,0.16,0.0
309,Le Port,RE,2020-06-16 13:10:31,-20.94,55.29,73.4,56,12,16.11,few clouds,0.0,0.0
310,Vao,NC,2020-06-16 13:10:31,-22.67,167.48,73.27,81,0,17.83,light rain,0.26,0.0
311,Camacha,PT,2020-06-16 13:05:29,33.08,-16.33,71.6,83,40,8.05,scattered clouds,0.0,0.0
312,Tautira,PF,2020-06-16 13:05:43,-17.73,-149.15,80.6,69,75,8.05,broken clouds,0.0,0.0
313,Sao Filipe,CV,2020-06-16 13:10:31,14.9,-24.5,78.22,77,40,8.59,scattered clouds,0.0,0.0
314,Mayo,US,2020-06-16 13:05:14,38.89,-76.51,66.99,63,1,10.29,clear sky,0.0,0.0
315,Brigantine,US,2020-06-16 13:10:31,39.41,-74.36,64.99,72,1,9.17,clear sky,0.0,0.0
316,Huanren,CN,2020-06-16 13:10:32,41.26,125.37,62.91,73,2,2.37,clear sky,0.0,0.0
317,Campoverde,PE,2020-06-16 13:10:32,-8.48,-74.81,73.4,94,75,2.24,mist,0.0,0.0
318,Kota Kinabalu,MY,2020-06-16 13:10:32,5.97,116.07,81.0,88,20,10.29,few clouds,0.0,0.0
319,Pailon,BO,2020-06-16 13:10:32,-17.65,-62.75,68.0,88,75,10.29,broken clouds,0.0,0.0
320,Hervey Bay,AU,2020-06-16 13:10:32,-25.3,152.85,66.99,88,90,6.93,overcast clouds,0.0,0.0
321,Inuvik,CA,2020-06-16 13:10:33,68.35,-133.72,60.8,41,75,8.05,broken clouds,0.0,0.0
322,Meulaboh,ID,2020-06-16 13:05:59,4.14,96.13,76.28,89,100,8.68,overcast clouds,0.0,0.0
323,Caldwell,US,2020-06-16 13:08:46,43.66,-116.69,53.6,100,90,6.93,overcast clouds,0.0,0.0
324,Khuzhir,RU,2020-06-16 13:10:33,53.19,107.34,52.57,76,100,9.66,overcast clouds,0.0,0.0
325,Roald,NO,2020-06-16 13:10:33,62.58,6.13,72.0,82,32,12.75,fog,0.0,0.0
326,Vanavara,RU,2020-06-16 13:10:33,60.34,102.28,54.88,74,34,1.9,light rain,0.41,0.0
327,Taikang,CN,2020-06-16 13:10:33,46.83,124.42,65.62,72,64,16.22,broken clouds,0.0,0.0
328,Hennenman,ZA,2020-06-16 13:10:34,-27.98,27.02,42.01,88,100,4.0,overcast clouds,0.0,0.0
329,Saskylakh,RU,2020-06-16 13:05:54,71.92,114.08,51.21,51,0,7.96,clear sky,0.0,0.0
330,Agadir,MA,2020-06-16 13:07:40,30.42,-9.6,84.2,48,5,12.75,clear sky,0.0,0.0
331,Brody,UA,2020-06-16 13:10:34,50.09,25.15,72.16,82,100,8.03,light rain,0.58,0.0
332,Upata,VE,2020-06-16 13:10:34,8.01,-62.4,77.0,90,93,5.01,overcast clouds,0.0,0.0
333,Karratha,AU,2020-06-16 13:06:09,-20.74,116.85,72.43,50,0,2.51,clear sky,0.0,0.0
334,Mbaiki,CF,2020-06-16 13:10:34,3.87,17.99,82.08,74,100,3.42,moderate rain,1.11,0.0
335,Selma,US,2020-06-16 13:10:34,36.57,-119.61,60.8,71,0,9.82,clear sky,0.0,0.0
336,Kiama,AU,2020-06-16 13:10:35,-34.68,150.87,62.01,64,39,8.99,scattered clouds,0.0,0.0
337,Yingcheng,CN,2020-06-16 13:10:35,30.95,113.55,89.6,66,100,4.47,light rain,0.92,0.0
338,Bengkulu,ID,2020-06-16 13:05:34,-3.8,102.27,79.59,86,100,6.76,light rain,0.28,0.0
339,Taoudenni,ML,2020-06-16 13:10:35,22.68,-3.98,113.59,5,0,19.46,clear sky,0.0,0.0
340,Kloulklubed,PW,2020-06-16 13:10:35,7.04,134.26,78.8,88,75,10.25,broken clouds,0.0,0.0
341,Georgetown,MY,2020-06-16 13:05:37,5.41,100.34,84.2,74,20,3.36,few clouds,0.0,0.0
342,Huron,US,2020-06-16 13:10:35,41.15,-82.55,68.0,72,0,1.99,clear sky,0.0,0.0
343,Changji,CN,2020-06-16 13:10:36,44.02,87.32,91.4,17,20,8.95,few clouds,0.0,0.0
344,Khor,RU,2020-06-16 13:10:36,47.89,134.95,48.36,92,61,7.85,broken clouds,0.0,0.0
345,Nanortalik,GL,2020-06-16 13:15:11,60.14,-45.24,39.87,94,100,4.76,light rain,0.13,0.0
346,Krasnyy Chikoy,RU,2020-06-16 13:10:36,50.36,108.75,58.21,88,100,1.39,light rain,0.33,0.0
347,Alyangula,AU,2020-06-16 13:05:20,-13.85,136.42,75.2,78,90,5.82,overcast clouds,0.0,0.0
348,Ahipara,NZ,2020-06-16 13:05:20,-35.17,173.17,56.52,88,44,9.15,scattered clouds,0.0,0.0
349,Antofagasta,CL,2020-06-16 13:01:10,-23.65,-70.4,59.0,77,90,4.7,overcast clouds,0.0,0.0
350,Longkou,CN,2020-06-16 13:10:37,37.65,120.33,76.3,57,100,11.99,overcast clouds,0.0,0.0
351,Gubkinskiy,RU,2020-06-16 13:10:37,64.43,76.5,59.23,60,100,6.4,overcast clouds,0.0,0.0
352,Diamantino,BR,2020-06-16 13:06:39,-14.41,-56.45,80.56,53,0,9.31,clear sky,0.0,0.0
353,Teeli,RU,2020-06-16 13:10:37,51.03,90.23,66.69,52,90,1.99,overcast clouds,0.0,0.0
354,Kourou,GF,2020-06-16 13:10:37,5.16,-52.65,82.4,69,90,4.7,overcast clouds,0.0,0.0
355,Toora-Khem,RU,2020-06-16 13:10:38,52.47,96.11,58.69,49,0,5.82,clear sky,0.0,0.0
356,Kurchum,KZ,2020-06-16 13:10:38,48.57,83.65,78.57,44,77,9.53,broken clouds,0.0,0.0
357,Bandarbeyla,SO,2020-06-16 13:05:48,9.49,50.81,93.31,41,76,24.56,broken clouds,0.0,0.0
358,Rawson,AR,2020-06-16 13:05:50,-43.3,-65.1,51.35,49,0,16.24,clear sky,0.0,0.0
359,Wasilla,US,2020-06-16 13:07:53,61.58,-149.44,48.99,87,90,1.28,overcast clouds,0.0,0.0
360,Itarema,BR,2020-06-16 13:05:21,-2.92,-39.92,82.69,72,4,14.29,clear sky,0.0,0.0
361,Mount Gambier,AU,2020-06-16 13:10:13,-37.83,140.77,50.0,93,90,4.7,overcast clouds,0.0,0.0
362,Gashua,NG,2020-06-16 13:10:38,12.87,11.05,105.55,17,0,6.2,clear sky,0.0,0.0
363,Mortka,RU,2020-06-16 13:10:39,59.33,66.02,75.51,47,74,7.87,broken clouds,0.0,0.0
364,Almeirim,BR,2020-06-16 13:08:53,-1.52,-52.58,75.99,95,100,1.9,overcast clouds,0.0,0.0
365,Windsor,CA,2020-06-16 13:08:13,42.3,-83.02,66.99,63,1,8.05,clear sky,0.0,0.0
366,Puerto Colombia,CO,2020-06-16 13:09:17,10.99,-74.95,82.4,88,75,4.7,fog,0.0,0.0
367,Pithiviers,FR,2020-06-16 13:10:39,48.17,2.25,72.0,87,24,2.24,light rain,0.31,0.0
368,Zastron,ZA,2020-06-16 13:10:39,-30.3,27.08,52.47,34,0,6.31,clear sky,0.0,0.0
369,Aksarka,RU,2020-06-16 13:10:39,66.56,67.8,50.34,48,100,11.74,overcast clouds,0.0,0.0
370,Nioro,GM,2020-06-16 13:10:40,13.35,-15.75,96.67,41,0,5.95,clear sky,0.0,0.0
371,Dickinson,US,2020-06-16 13:10:40,29.46,-95.05,80.01,83,90,1.61,overcast clouds,0.0,0.0
372,Novoorsk,RU,2020-06-16 13:10:40,51.38,58.98,78.8,31,75,6.71,broken clouds,0.0,0.0
373,Dehloran,IR,2020-06-16 13:10:40,32.69,47.27,113.14,6,0,16.04,clear sky,0.0,0.0
374,Taltal,CL,2020-06-16 13:10:40,-25.4,-70.48,59.13,74,100,1.48,overcast clouds,0.0,0.0
375,Faanui,PF,2020-06-16 13:05:27,-16.48,-151.75,79.09,85,31,13.15,light rain,0.62,0.0
376,Xixiang,CN,2020-06-16 13:10:41,35.16,112.86,66.0,99,100,8.59,moderate rain,2.2,0.0
377,Dongying,CN,2020-06-16 13:10:41,37.46,118.49,80.11,40,100,13.76,overcast clouds,0.0,0.0
378,Kirakira,SB,2020-06-16 13:05:46,-10.45,161.92,79.25,84,100,10.94,overcast clouds,0.0,0.0
379,Abtenau,AT,2020-06-16 13:10:41,47.56,13.35,66.99,68,40,9.17,scattered clouds,0.0,0.0
380,Ketou,BJ,2020-06-16 13:10:41,7.36,2.6,87.26,67,100,5.3,overcast clouds,0.0,0.0
381,Murud,IN,2020-06-16 13:10:42,18.33,72.97,81.03,87,90,9.75,light rain,0.26,0.0
382,Florianopolis,BR,2020-06-16 13:10:42,-27.61,-48.5,69.01,100,75,5.82,mist,0.0,0.0
383,Alice Springs,AU,2020-06-16 13:09:29,-23.7,133.88,52.0,36,0,4.7,clear sky,0.0,0.0
384,Bilma,NE,2020-06-16 13:10:08,18.69,12.92,111.27,6,0,19.24,clear sky,0.0,0.0
385,Bafoulabe,ML,2020-06-16 13:10:42,13.81,-10.83,100.74,32,0,8.66,clear sky,0.0,0.0
386,Kongolo,CD,2020-06-16 13:10:42,-5.38,27.0,92.17,24,0,5.99,clear sky,0.0,0.0
387,George,ZA,2020-06-16 13:10:42,-33.96,22.46,64.4,59,0,8.05,clear sky,0.0,0.0
388,Kununurra,AU,2020-06-16 13:10:42,-15.77,128.73,80.6,25,0,9.17,clear sky,0.0,0.0
389,Abalak,RU,2020-06-16 13:10:43,58.13,68.59,68.99,57,87,2.26,overcast clouds,0.0,0.0
390,Cockburn Town,TC,2020-06-16 13:10:43,21.46,-71.14,81.82,82,100,17.2,overcast clouds,0.0,0.0
391,Alekseyevsk,RU,2020-06-16 13:10:43,57.84,108.35,53.55,89,100,3.94,overcast clouds,0.0,0.0
392,Hobyo,SO,2020-06-16 13:09:22,5.35,48.53,84.67,59,84,29.62,broken clouds,0.0,0.0
393,Lichtenburg,ZA,2020-06-16 13:10:43,-26.15,26.16,42.98,78,100,12.39,moderate rain,1.13,0.0
394,Black River,JM,2020-06-16 13:10:43,18.03,-77.85,84.99,88,20,2.24,few clouds,0.0,0.0
395,Formosa Do Rio Preto,BR,2020-06-16 13:10:44,-11.05,-45.19,77.74,54,0,10.85,clear sky,0.0,0.0
396,Taree,AU,2020-06-16 13:10:44,-31.9,152.47,48.2,100,0,3.29,clear sky,0.0,0.0
397,Doctor Arroyo,MX,2020-06-16 13:10:44,23.67,-100.18,59.95,79,34,1.72,scattered clouds,0.0,0.0
398,Babusnica,RS,2020-06-16 13:10:44,43.06,22.41,77.0,53,75,6.93,broken clouds,0.0,0.0
399,Mizan Teferi,ET,2020-06-16 13:10:44,6.98,35.58,71.22,87,68,0.56,moderate rain,1.37,0.0
400,Bolgatanga,GH,2020-06-16 13:10:44,10.79,-0.85,102.7,30,10,3.98,clear sky,0.0,0.0
401,Conde,BR,2020-06-16 13:10:44,-7.26,-34.91,73.4,100,75,4.7,light rain,0.0,0.0
402,Puerto Leguizamo,CO,2020-06-16 13:10:44,-0.19,-74.78,74.71,94,79,1.63,light rain,0.32,0.0
403,Touros,BR,2020-06-16 13:10:45,-5.2,-35.46,75.2,94,75,9.17,shower rain,0.0,0.0
404,Bang Saphan,TH,2020-06-16 13:10:45,11.21,99.51,80.53,85,100,2.91,light rain,0.11,0.0
405,Forio,IT,2020-06-16 13:10:45,40.73,13.86,73.99,77,0,10.0,clear sky,0.0,0.0
406,Majene,ID,2020-06-16 13:10:45,-3.54,118.97,79.63,85,14,8.34,light rain,0.61,0.0
407,Codrington,AU,2020-06-16 13:05:36,-38.27,141.97,49.84,76,37,8.32,scattered clouds,0.0,0.0
408,Kavaratti,IN,2020-06-16 13:06:12,10.57,72.64,84.97,79,100,19.73,overcast clouds,0.0,0.0
409,Birobidzhan,RU,2020-06-16 13:09:25,48.8,132.95,52.45,94,100,3.85,overcast clouds,0.0,0.0
410,Boa Vista,BR,2020-06-16 13:10:32,2.82,-60.67,80.6,74,40,5.82,scattered clouds,0.0,0.0
411,Sao Joao Da Barra,BR,2020-06-16 13:10:46,-21.64,-41.05,75.2,83,75,4.7,broken clouds,0.0,0.0
412,Chaoyang,CN,2020-06-16 13:10:46,41.57,120.46,74.86,38,5,4.52,clear sky,0.0,0.0
413,Langsa,ID,2020-06-16 13:10:46,4.47,97.97,76.53,92,96,1.12,light rain,0.42,0.0
414,Geraldton,AU,2020-06-16 13:10:47,-28.77,114.6,53.6,54,0,13.87,clear sky,0.0,0.0
415,Olafsvik,IS,2020-06-16 13:10:47,64.89,-23.71,46.65,74,1,11.54,clear sky,0.0,0.0
416,Lingao,CN,2020-06-16 13:10:47,19.91,109.69,80.8,78,2,7.72,clear sky,0.0,0.0
417,Rosarito,MX,2020-06-16 13:10:47,32.33,-117.03,63.0,77,90,3.36,overcast clouds,0.0,0.0
418,Gwadar,PK,2020-06-16 13:08:01,25.12,62.33,87.87,77,35,19.06,scattered clouds,0.0,0.0
419,Hat Yai,TH,2020-06-16 13:10:47,7.01,100.48,80.6,83,20,2.24,few clouds,0.0,0.0
420,Tornio,FI,2020-06-16 13:10:48,65.85,24.15,64.4,36,0,8.05,clear sky,0.0,0.0
421,Shahpura,IN,2020-06-16 13:10:48,27.38,75.97,107.6,17,40,9.17,haze,0.0,0.0
422,Bayan,CN,2020-06-16 13:10:48,46.08,127.4,68.99,65,84,3.33,broken clouds,0.0,0.0
423,Puerto Del Rosario,ES,2020-06-16 13:10:49,28.5,-13.86,77.0,73,90,8.05,overcast clouds,0.0,0.0
424,Goma,CD,2020-06-16 13:10:49,-1.68,29.22,73.4,60,75,18.34,squalls,0.0,0.0
425,Charters Towers,AU,2020-06-16 13:09:28,-20.1,146.27,67.05,84,99,9.69,overcast clouds,0.0,0.0
426,Leningradskiy,RU,2020-06-16 13:10:49,69.38,178.42,41.67,85,0,6.33,clear sky,0.0,0.0
427,Catamarca,AR,2020-06-16 13:09:26,-28.47,-65.79,55.99,67,77,3.0,broken clouds,0.0,0.0
428,Paramonga,PE,2020-06-16 13:10:49,-10.67,-77.83,63.97,78,21,4.09,few clouds,0.0,0.0
429,Mabaruma,GY,2020-06-16 13:10:50,8.2,-59.78,80.02,90,100,4.36,moderate rain,1.82,0.0
430,Baisha,CN,2020-06-16 13:10:50,26.52,110.93,78.4,77,0,4.68,clear sky,0.0,0.0
431,Moerai,PF,2020-06-16 13:10:50,-22.43,-151.33,67.32,88,100,21.03,moderate rain,1.27,0.0
432,Bamnet Narong,TH,2020-06-16 13:10:50,15.5,101.69,79.03,82,100,3.71,light rain,0.38,0.0
433,Gallup,US,2020-06-16 13:10:50,35.53,-108.74,55.4,46,1,10.16,clear sky,0.0,0.0
434,Siniscola,IT,2020-06-16 13:10:51,40.57,9.69,84.2,25,1,21.92,clear sky,0.0,0.0
435,Manggar,ID,2020-06-16 13:10:51,-2.88,108.27,81.82,81,5,5.28,clear sky,0.0,0.0
436,Saint George,US,2020-06-16 13:01:09,37.1,-113.58,71.6,19,1,12.75,clear sky,0.0,0.0
437,Sandnessjoen,NO,2020-06-16 13:10:51,66.02,12.63,69.01,63,0,4.7,clear sky,0.0,0.0
438,Sibu,MY,2020-06-16 13:10:51,2.3,111.82,78.8,94,75,2.24,broken clouds,0.0,0.0
439,Terney,RU,2020-06-16 13:10:51,45.05,136.61,48.67,89,100,2.89,overcast clouds,0.0,0.0
440,Portland,US,2020-06-16 13:00:54,45.52,-122.68,53.01,94,100,5.68,light rain,0.62,0.0
441,Acarau,BR,2020-06-16 13:10:37,-2.89,-40.12,82.72,73,47,14.58,scattered clouds,0.0,0.0
442,Asau,RO,2020-06-16 13:05:31,46.43,26.4,66.2,88,75,9.17,thunderstorm with light rain,0.0,0.0
443,Road Town,VG,2020-06-16 13:02:26,18.42,-64.62,84.2,78,75,10.29,light intensity shower rain,0.0,0.0
444,San Policarpo,PH,2020-06-16 13:10:52,12.18,125.51,82.42,78,46,7.4,scattered clouds,0.0,0.0
445,Rocha,UY,2020-06-16 13:09:25,-34.48,-54.33,59.67,90,78,11.9,light rain,0.46,0.0
446,Shenyang,CN,2020-06-16 13:10:53,41.79,123.43,75.2,57,0,4.47,clear sky,0.0,0.0
447,Clonakilty,IE,2020-06-16 13:10:53,51.62,-8.87,64.4,72,75,10.29,broken clouds,0.0,0.0
448,Salinopolis,BR,2020-06-16 13:05:57,-0.61,-47.36,82.76,76,12,12.12,light rain,0.72,0.0
449,Aklavik,CA,2020-06-16 13:06:10,68.22,-135.01,60.8,41,75,8.05,broken clouds,0.0,0.0
450,Malakal,SS,2020-06-16 13:10:53,9.53,31.66,94.06,39,93,2.91,overcast clouds,0.0,0.0
451,Paamiut,GL,2020-06-16 13:15:25,61.99,-49.67,36.99,80,87,6.91,overcast clouds,0.0,0.0
452,Bilibino,RU,2020-06-16 13:10:54,68.05,166.44,59.67,49,0,1.19,clear sky,0.0,0.0
453,Rio Grande,BR,2020-06-16 13:07:50,-32.03,-52.1,57.2,100,90,6.93,mist,0.0,0.0
454,Ommen,NL,2020-06-16 13:10:54,52.53,6.5,70.0,74,100,1.99,light rain,0.31,0.0
455,Tazovskiy,RU,2020-06-16 13:09:09,67.47,78.7,44.38,59,46,16.2,scattered clouds,0.0,0.0
456,Labuan,MY,2020-06-16 13:10:54,5.28,115.24,84.2,83,90,2.24,thunderstorm,0.0,0.0
457,Buseresere,TZ,2020-06-16 13:09:05,-3.02,31.87,81.18,36,49,7.52,scattered clouds,0.0,0.0
458,Elko,US,2020-06-16 13:10:55,41.0,-115.5,52.0,77,61,8.99,light rain,0.25,0.0
459,Marchena,ES,2020-06-16 13:10:55,37.33,-5.42,82.0,34,20,11.41,few clouds,0.0,0.0
460,Vila Franca Do Campo,PT,2020-06-16 13:09:16,37.72,-25.43,71.6,68,40,11.41,scattered clouds,0.0,0.0
461,Kevsala,RU,2020-06-16 13:10:55,45.8,42.69,89.58,36,95,9.84,overcast clouds,0.0,0.0
462,Stornoway,GB,2020-06-16 13:10:55,58.21,-6.39,60.01,93,90,1.12,overcast clouds,0.0,0.0
463,Ulaangom,MN,2020-06-16 13:10:55,49.98,92.07,70.68,38,23,1.66,light rain,0.53,0.0
464,Zabid,YE,2020-06-16 13:10:56,14.2,43.32,99.64,37,100,12.35,overcast clouds,0.0,0.0
465,Inyonga,TZ,2020-06-16 13:10:56,-6.72,32.07,82.58,27,85,3.62,overcast clouds,0.0,0.0
466,Tanout,NE,2020-06-16 13:08:03,14.97,8.89,106.54,11,0,11.41,clear sky,0.0,0.0
467,San Ramon,US,2020-06-16 13:10:56,37.78,-121.98,57.2,87,1,6.93,clear sky,0.0,0.0
468,Gazanjyk,TM,2020-06-16 13:10:56,39.24,55.52,104.07,13,0,5.66,clear sky,0.0,0.0
469,Aliwal North,ZA,2020-06-16 13:10:56,-30.69,26.71,56.1,31,0,4.05,clear sky,0.0,0.0
470,Sisimiut,GL,2020-06-16 13:10:57,66.94,-53.67,40.06,70,100,5.06,overcast clouds,0.0,0.0
471,Emporia,US,2020-06-16 13:07:15,38.4,-96.18,71.6,78,1,10.29,clear sky,0.0,0.0
472,Atar,MR,2020-06-16 13:10:57,20.52,-13.05,109.89,10,0,25.81,clear sky,0.0,0.0
473,Karasjok,NO,2020-06-16 13:10:57,69.47,25.51,53.6,47,75,6.93,broken clouds,0.0,0.0
474,Chino Valley,US,2020-06-16 13:10:58,34.76,-112.45,55.0,34,1,5.82,clear sky,0.0,0.0
475,Saint-Joseph,RE,2020-06-16 13:05:33,-21.37,55.62,73.4,56,34,18.34,scattered clouds,0.0,0.0
476,Komsomolskiy,UZ,2020-06-16 13:06:06,40.43,71.72,95.0,13,3,2.24,clear sky,0.0,0.0
477,Fort-Shevchenko,KZ,2020-06-16 13:10:58,44.51,50.26,88.83,26,87,21.99,overcast clouds,0.0,0.0
478,Xining,CN,2020-06-16 13:10:58,36.62,101.77,50.49,81,100,1.57,light rain,0.16,0.0
479,Ordino,AD,2020-06-16 13:10:58,42.6,1.53,57.99,83,100,0.65,moderate rain,2.01,0.0
480,Yangmei,CN,2020-06-16 13:10:59,24.1,112.56,72.79,96,22,3.51,few clouds,0.0,0.0
481,Beira,MZ,2020-06-16 13:10:59,-19.84,34.84,73.4,64,75,12.75,broken clouds,0.0,0.0
482,Letterkenny,IE,2020-06-16 13:10:50,54.95,-7.73,60.8,87,90,5.82,overcast clouds,0.0,0.0
483,Batouri,CM,2020-06-16 13:11:00,4.43,14.37,85.95,58,100,1.61,light rain,0.22,0.0
484,Wooster,US,2020-06-16 13:06:01,40.81,-81.94,64.0,82,1,4.7,clear sky,0.0,0.0
485,Grand Gaube,MU,2020-06-16 13:05:30,-20.01,57.66,73.99,64,100,5.01,overcast clouds,0.0,0.0
486,Macau,MO,2020-06-16 13:06:36,22.2,113.55,82.4,83,20,11.41,few clouds,0.0,0.0
487,Namibe,AO,2020-06-16 13:06:04,-15.2,12.15,87.8,38,0,13.87,clear sky,0.0,0.0
488,Emerald,AU,2020-06-16 13:11:01,-23.53,148.17,59.0,72,36,8.05,scattered clouds,0.0,0.0
489,Sambava,MG,2020-06-16 13:10:53,-14.27,50.17,72.82,84,100,12.97,light rain,0.29,0.0
490,Berdigestyakh,RU,2020-06-16 13:11:01,62.1,126.7,59.47,75,0,5.88,clear sky,0.0,0.0
491,Pemangkat,ID,2020-06-16 13:11:02,1.17,108.97,79.21,81,100,4.03,overcast clouds,0.0,0.0
492,Auki,SB,2020-06-16 13:05:35,-8.77,160.7,78.75,86,100,3.06,overcast clouds,0.0,0.0
493,Rochester,US,2020-06-16 13:09:00,43.15,-77.62,63.0,69,1,2.66,clear sky,0.0,0.0
494,Vostok,RU,2020-06-16 13:11:02,46.49,135.88,45.1,100,60,2.37,broken clouds,0.0,0.0
495,Nisia Floresta,BR,2020-06-16 13:11:02,-6.09,-35.21,77.0,88,75,12.75,broken clouds,0.0,0.0
496,Baruun-Urt,MN,2020-06-16 13:11:02,46.68,113.28,74.7,22,73,5.1,broken clouds,0.0,0.0
497,Cap Malheureux,MU,2020-06-16 13:11:03,-19.98,57.61,73.0,65,95,5.99,overcast clouds,0.0,0.0
498,Itapetinga,BR,2020-06-16 13:11:03,-15.25,-40.25,74.59,79,24,9.51,light rain,0.75,0.0
499,Dalbandin,PK,2020-06-16 13:06:02,28.89,64.41,110.01,5,0,11.65,clear sky,0.0,0.0
500,Harper,LR,2020-06-16 13:10:38,4.38,-7.72,81.61,76,84,8.72,light rain,0.29,0.0
501,Port Moresby,PG,2020-06-16 13:11:03,-9.44,147.18,78.8,88,75,11.41,broken clouds,0.0,0.0
502,Norden,DE,2020-06-16 13:11:03,53.6,7.2,71.01,68,75,9.17,broken clouds,0.0,0.0
503,Novyy Urgal,RU,2020-06-16 13:10:51,51.07,132.56,47.57,81,47,2.62,scattered clouds,0.0,0.0
504,Bonthe,SL,2020-06-16 13:05:49,7.53,-12.51,85.44,72,90,6.46,light rain,0.76,0.0
505,Plouzane,FR,2020-06-16 13:11:04,48.38,-4.62,62.6,87,57,4.7,light rain,0.58,0.0
506,Canico,PT,2020-06-16 13:11:04,32.63,-16.85,71.6,83,40,6.93,scattered clouds,0.0,0.0
507,Inhambane,MZ,2020-06-16 13:06:04,-23.86,35.38,72.39,54,0,12.17,clear sky,0.0,0.0
508,Mandera,KE,2020-06-16 13:11:05,3.94,41.87,90.19,38,94,18.28,overcast clouds,0.0,0.0
509,Deputatskiy,RU,2020-06-16 13:05:45,69.3,139.9,64.6,43,100,10.2,overcast clouds,0.0,0.0
510,Yebaishou,CN,2020-06-16 13:11:05,41.4,119.64,76.3,34,71,3.2,broken clouds,0.0,0.0
511,Porto Real,BR,2020-06-16 13:11:06,-22.42,-44.29,66.97,80,92,2.26,overcast clouds,0.0,0.0
512,Saint-Esteve,FR,2020-06-16 13:11:06,42.71,2.84,73.99,43,90,10.29,overcast clouds,0.0,0.0
513,Puerto Escondido,MX,2020-06-16 13:11:06,15.85,-97.07,78.8,74,5,6.93,clear sky,0.0,0.0
514,Rovaniemi,FI,2020-06-16 13:11:06,66.5,25.72,59.0,41,46,5.82,scattered clouds,0.0,0.0
515,Xuchang,CN,2020-06-16 13:07:29,34.02,113.82,68.0,94,90,8.95,light rain,0.0,0.0
516,Auka,HN,2020-06-16 13:11:07,14.93,-83.83,78.73,88,87,3.04,overcast clouds,0.0,0.0
517,Bulgan,MN,2020-06-16 13:11:07,48.81,103.53,56.44,89,100,2.8,moderate rain,1.08,0.0
518,Laukaa,RU,2020-06-16 13:11:07,58.74,29.85,84.97,46,25,2.93,scattered clouds,0.0,0.0
519,Anloga,GH,2020-06-16 13:11:07,5.79,0.9,86.0,74,40,13.87,scattered clouds,0.0,0.0
520,Sao Gabriel Da Cachoeira,BR,2020-06-16 13:11:08,-0.13,-67.09,77.0,100,75,2.24,broken clouds,0.0,0.0
521,Maun,BW,2020-06-16 13:11:08,-19.98,23.42,75.2,27,0,4.7,clear sky,0.0,0.0
522,Kupang,ID,2020-06-16 13:11:08,-10.17,123.58,78.91,75,87,14.7,overcast clouds,0.0,0.0
523,Sur,OM,2020-06-16 13:05:52,22.57,59.53,99.68,39,68,1.25,broken clouds,0.0,0.0
524,Grafton,US,2020-06-16 13:11:08,42.21,-71.69,66.0,55,1,6.93,clear sky,0.0,0.0
525,Haines Junction,CA,2020-06-16 13:15:36,60.75,-137.51,48.61,74,100,4.88,overcast clouds,0.0,0.0
526,Vangaindrano,MG,2020-06-16 13:11:08,-23.35,47.6,68.9,88,87,8.7,moderate rain,1.23,0.0
527,Port Hedland,AU,2020-06-16 13:11:08,-20.32,118.57,68.0,68,0,4.7,clear sky,0.0,0.0
528,Manicore,BR,2020-06-16 13:11:09,-5.81,-61.3,77.0,94,40,3.36,scattered clouds,0.0,0.0
529,Ca Mau,VN,2020-06-16 13:11:09,9.18,105.15,79.97,86,100,0.72,overcast clouds,0.0,0.0
530,Mitu,CO,2020-06-16 13:07:37,1.2,-70.17,76.35,87,19,2.04,few clouds,0.0,0.0
531,Carpentras,FR,2020-06-16 13:11:09,44.08,5.17,80.6,42,100,18.34,overcast clouds,0.0,0.0
532,Hotaka,JP,2020-06-16 13:10:53,36.34,137.88,60.01,79,5,1.99,clear sky,0.0,0.0
533,Xuddur,SO,2020-06-16 13:11:10,4.12,43.89,83.7,48,100,20.18,overcast clouds,0.0,0.0
534,Bakel,SN,2020-06-16 13:11:10,14.9,-12.46,101.84,27,13,11.99,few clouds,0.0,0.0
535,Ewa Beach,US,2020-06-16 13:10:54,21.32,-158.01,75.2,83,40,4.7,scattered clouds,0.0,0.0
536,Palaikastron,GR,2020-06-16 13:11:10,35.2,26.25,81.0,67,0,8.99,clear sky,0.0,0.0
537,Korablino,RU,2020-06-16 13:11:11,53.92,40.01,74.93,70,100,7.27,overcast clouds,0.0,0.0
538,Storforshei,NO,2020-06-16 13:11:11,66.4,14.52,64.4,52,3,9.17,clear sky,0.0,0.0
539,Gasa,PS,2020-06-16 13:11:11,31.5,34.47,86.0,50,0,3.0,clear sky,0.0,0.0
540,Broken Hill,AU,2020-06-16 13:15:38,-31.95,141.43,53.6,58,0,9.13,clear sky,0.0,0.0
541,Krasnaya Gorbatka,RU,2020-06-16 13:11:11,55.87,41.76,74.17,66,85,6.44,overcast clouds,0.0,0.0
542,Jinka,ET,2020-06-16 13:11:12,5.65,36.65,74.79,69,34,2.51,light rain,0.3,0.0
543,San Marcos,US,2020-06-16 13:11:12,33.14,-117.17,64.99,82,90,1.79,overcast clouds,0.0,0.0
544,Pringsewu,ID,2020-06-16 13:11:12,-5.36,104.97,75.92,93,100,2.82,light rain,0.57,0.0
545,Mackay,AU,2020-06-16 13:11:12,-21.15,149.2,68.0,82,90,5.82,overcast clouds,0.0,0.0
546,Angoche,MZ,2020-06-16 13:11:13,-16.23,39.91,71.69,83,82,11.7,moderate rain,1.01,0.0
547,Bathsheba,BB,2020-06-16 13:09:22,13.22,-59.52,84.2,66,20,21.92,few clouds,0.0,0.0
548,Ukiah,US,2020-06-16 13:11:13,39.15,-123.21,53.6,71,1,9.17,clear sky,0.0,0.0
549,Qujing,CN,2020-06-16 13:09:35,25.48,103.78,66.63,87,6,9.89,clear sky,0.0,0.0
550,Pilar,BR,2020-06-16 13:11:13,-9.6,-35.96,77.0,78,75,12.75,shower rain,0.0,0.0
551,Amarante Do Maranhao,BR,2020-06-16 13:11:13,-5.57,-46.74,79.74,63,0,9.62,clear sky,0.0,0.0
552,Samut Prakan,TH,2020-06-16 13:11:13,13.6,100.6,91.0,94,75,5.82,light rain,0.0,0.0
553,Druzhba,UA,2020-06-16 13:11:14,52.04,33.95,76.96,67,0,13.98,clear sky,0.0,0.0
554,Verkhnyaya Inta,RU,2020-06-16 13:06:01,65.98,60.31,50.7,52,100,14.74,overcast clouds,0.0,0.0
555,Yurkivka,UA,2020-06-16 13:11:14,49.01,31.1,75.06,68,82,7.99,light rain,0.44,0.0
556,Launceston,AU,2020-06-16 13:11:14,-41.45,147.17,42.01,73,40,11.41,scattered clouds,0.0,0.0
557,Noumea,NC,2020-06-16 13:11:14,-22.28,166.46,66.2,72,0,1.12,clear sky,0.0,0.0
558,Coihaique,CL,2020-06-16 13:09:24,-45.58,-72.07,33.8,86,75,1.88,mist,0.0,0.0
559,Greenville,US,2020-06-16 13:07:52,35.61,-77.37,63.0,93,90,10.29,light rain,0.25,0.0
560,Nkowakowa,ZA,2020-06-16 13:11:15,-23.89,30.29,46.4,70,20,10.29,few clouds,0.0,0.0
561,Marsh Harbour,BS,2020-06-16 13:11:15,26.54,-77.06,79.68,78,100,8.55,overcast clouds,0.0,0.0
562,Lere,NG,2020-06-16 13:11:15,10.39,8.57,92.61,45,0,1.79,clear sky,0.0,0.0
563,Altay,CN,2020-06-16 13:11:15,47.87,88.12,75.56,38,0,5.7,clear sky,0.0,0.0
564,Miri,MY,2020-06-16 13:08:28,4.41,114.01,84.2,83,75,5.82,broken clouds,0.0,0.0
565,Hazorasp,UZ,2020-06-16 13:11:16,41.32,61.07,82.4,21,91,13.87,overcast clouds,0.0,0.0
566,San Juan Del Sur,NI,2020-06-16 13:11:16,11.25,-85.87,80.6,83,40,14.79,scattered clouds,0.0,0.0
567,Benghazi,LY,2020-06-16 13:11:16,32.12,20.07,75.78,61,0,15.55,clear sky,0.0,0.0
568,Khlung,TH,2020-06-16 13:11:16,12.45,102.22,79.36,87,100,3.09,moderate rain,1.63,0.0
569,Bose,IT,2020-06-16 13:11:17,45.46,8.01,77.0,64,92,4.36,overcast clouds,0.0,0.0
570,Gainesville,US,2020-06-16 13:11:17,29.65,-82.32,69.01,93,75,8.05,broken clouds,0.0,0.0
